input_id,link,title,category,address,open_hours,popular_times,website,phone,plus_code,review_count,review_rating,reviews_per_rating,latitude,longitude,cid,status,descriptions,reviews_link,thumbnail,timezone,price_range,data_id,images,reservations,order_online,menu,owner,complete_address,about,user_reviews,user_reviews_extended,emails
88UVaZCuI4vk2roP5p306Qw,,Quán nước Hưng Hà,,"km286+397, QL 1A Trạm thu phí Bỉm Sơn, QL1A, Khu phố 8, Hà Trung, Thanh Hóa 40750, Vietnam",{},null,,,7PG74VF2+RP,4,5.000000,null,20.124611,105.851855,,,,,,Asia/Saigon,,0x3136630154162437:0x683d8757b11deb39,null,null,null,"{""link"":"""",""source"":""""}","{""id"":"""",""name"":"""",""link"":""""}","{""borough"":"""",""street"":"""",""city"":"""",""postal_code"":"""",""state"":"""",""country"":""""}",null,null,null,
88UVaZCuI4vk2roP5p306Qw,,Cafe Kakao,,"Khu phố 8, Bắc Sơn, Tx. Bỉm Sơn, Thanh Hóa, Vietnam",{},null,,,7PG74VJ5+VX,0,0.000000,null,20.132185,105.859976,,,,,,Asia/Saigon,,0x3136637135a42061:0x63f66108715293fd,null,null,null,"{""link"":"""",""source"":""""}","{""id"":"""",""name"":"""",""link"":""""}","{""borough"":"""",""street"":"""",""city"":"""",""postal_code"":"""",""state"":"""",""country"":""""}",null,null,null,
88UVaZCuI4vk2roP5p306Qw,,Cafe Newway,,"3VP3+G9P, Nguyễn Văn Cừ, Ngọc Trạo, Bỉm Sơn, Thanh Hóa, Vietnam",{},null,,+84915107599,7PG73VP3+G9,57,4.200000,null,20.086330,105.853466,,,,,,Asia/Saigon,,0x313663e0b3644779:0x34f635deeb4fd9c5,null,null,null,"{""link"":"""",""source"":""""}","{""id"":"""",""name"":"""",""link"":""""}","{""borough"":"""",""street"":"""",""city"":"""",""postal_code"":"""",""state"":"""",""country"":""""}",null,null,null,
88UVaZCuI4vk2roP5p306Qw,,Ara Billiard Cafe Nhà Vườn,,"33 Thạch Cầu, Long Biên, Hà Nội, Vietnam",{},null,,+84967573444,7PH72VCJ+52,5,5.000000,null,21.020463,105.880110,,,,,,Asia/Saigon,,0x3135a9005b084211:0xcdbaa5929a9a487c,null,null,null,"{""link"":"""",""source"":""""}","{""id"":"""",""name"":"""",""link"":""""}","{""borough"":"""",""street"":"""",""city"":"""",""postal_code"":"""",""state"":"""",""country"":""""}",null,null,null,
88UVaZCuI4vk2roP5p306Qw,,Café Gầm Cầu,,"Làng Trạm, Long Biên, Hà Nội, Vietnam",{},null,,,7PH72VFV+5C,3,5.000000,null,21.022941,105.893600,,,,,,Asia/Saigon,,0x3135a943d7fc7913:0x5e908cd51410ff,null,null,null,"{""link"":"""",""source"":""""}","{""id"":"""",""name"":"""",""link"":""""}","{""borough"":"""",""street"":"""",""city"":"""",""postal_code"":"""",""state"":"""",""country"":""""}",null,null,null,
88UVaZCuI4vk2roP5p306Qw,,Cafe Sen Đá,,"2 Thạch Cầu, Long Biên, Hà Nội, Vietnam",{},null,,+84969497227,7PH72VGM+49,1,5.000000,null,21.025370,105.883475,,,,,,Asia/Saigon,,0x3135a917011da8f3:0x2f3cd440366be28b,null,null,null,"{""link"":"""",""source"":""""}","{""id"":"""",""name"":"""",""link"":""""}","{""borough"":"""",""street"":"""",""city"":"""",""postal_code"":"""",""state"":"""",""country"":""""}",null,null,null,
88UVaZCuI4vk2roP5p306Qw,,Tenement Coffee and Wine Bar,,"1B Lê Phụng Hiểu Hà Nội Hanoi City, 1B P. Lê Phụng Hiểu, Tràng Tiền, Hoàn Kiếm, Hà Nội, Vietnam",{},null,https://instagram.com/tenement_alley?igshid=MzRlODBiNWFlZA==,+84866555307,7PH72VG5+CC,719,4.900000,null,21.026087,105.858531,,,,,,Asia/Saigon,,0x3135ab60c2d52de5:0x91201e05d17a9bfa,null,null,null,"{""link"":"""",""source"":""""}","{""id"":"""",""name"":"""",""link"":""""}","{""borough"":"""",""street"":"""",""city"":"""",""postal_code"":"""",""state"":"""",""country"":""""}",null,null,null,
88UVaZCuI4vk2roP5p306Qw,,HI Cafe,,"202 16/29 Đ. Cổ Linh, Long Biên, Hà Nội, Vietnam",{},null,,+84826139131,7PH72VGV+HJ,22,4.500000,null,21.026461,105.894009,,,,,,Asia/Saigon,,0x3135a9bce8a46fdf:0xa38bfb79a0059838,null,null,null,"{""link"":"""",""source"":""""}","{""id"":"""",""name"":"""",""link"":""""}","{""borough"":"""",""street"":"""",""city"":"""",""postal_code"":"""",""state"":"""",""country"":""""}",null,null,null,
88UVaZCuI4vk2roP5p306Qw,,"Nghiền Cafe Phố Trạm - Số 172 Cổ Linh, Long Biên, HN",,"172 Đ. Cổ Linh, P, Long Biên, Hà Nội, Vietnam",{},null,,+84941295555,7PH72VGV+XQ,87,4.500000,null,21.027414,105.894414,,,,,,Asia/Saigon,,0x3135a9c06326ed61:0xd5b566fe95a88a87,null,null,null,"{""link"":"""",""source"":""""}","{""id"":"""",""name"":"""",""link"":""""}","{""borough"":"""",""street"":"""",""city"":"""",""postal_code"":"""",""state"":"""",""country"":""""}",null,null,null,
88UVaZCuI4vk2roP5p306Qw,,Cafe Nghiền,,"số 38 lô 3 Tái Định Cư Long Biên, Long Biên, Hà Nội, Vietnam",{},null,,+84904405818,7PH72VGV+XQ,2,5.000000,null,21.027440,105.894384,,,,,,Asia/Saigon,,0x3135a96a1d1597db:0xfd53c3ceafbc9656,null,null,null,"{""link"":"""",""source"":""""}","{""id"":"""",""name"":"""",""link"":""""}","{""borough"":"""",""street"":"""",""city"":"""",""postal_code"":"""",""state"":"""",""country"":""""}",null,null,null,
88UVaZCuI4vk2roP5p306Qw,,Zu zi Cafe,,"2VHP+J36, Phố, Tư Đình, Long Biên, Hà Nội, Vietnam",{},null,https://hoclaixehanoi.vn/,+84967392772,7PH72VHP+J3,26,4.200000,null,21.029036,105.885155,,,,,,Asia/Saigon,,0x3135a967a3f1ab09:0x84c0946d32a79037,null,null,null,"{""link"":"""",""source"":""""}","{""id"":"""",""name"":"""",""link"":""""}","{""borough"":"""",""street"":"""",""city"":"""",""postal_code"":"""",""state"":"""",""country"":""""}",null,null,null,
88UVaZCuI4vk2roP5p306Qw,,Blackbird Coffee,,"5 P. Chân Cầm, Hàng Trống, Hoàn Kiếm, Hà Nội, Vietnam",{},null,http://www.facebook.com/blackbirdcoffeevn,+84389513053,7PH72RJX+4C,1007,4.600000,null,21.030318,105.848513,,,,,,Asia/Saigon,,0x3135ab4ceeff3cbb:0xca4f0cd2de5c07dc,null,null,null,"{""link"":"""",""source"":""""}","{""id"":"""",""name"":"""",""link"":""""}","{""borough"":"""",""street"":"""",""city"":"""",""postal_code"":"""",""state"":"""",""country"":""""}",null,null,null,
88UVaZCuI4vk2roP5p306Qw,,Hidden Gem Cafe Hanoi,,"1 Hàng Mắm, Phố cổ Hà Nội, Hoàn Kiếm, Hà Nội 10000, Vietnam",{},null,https://www.instagram.com/hiddengemcoffeehanoi?igsh=dHRqZzBwMnF2YTB3,+84962011540,7PH72VM4+F3,3335,4.800000,null,21.033745,105.855191,,,,,,Asia/Saigon,,0x3135ab22da9ec48d:0x8c6411cf507e6c76,null,null,null,"{""link"":"""",""source"":""""}","{""id"":"""",""name"":"""",""link"":""""}","{""borough"":"""",""street"":"""",""city"":"""",""postal_code"":"""",""state"":"""",""country"":""""}",null,null,null,
88UVaZCuI4vk2roP5p306Qw,,C.O.C Legacy Specialty Coffee,,"84 P. Hàng Bạc, Hàng Đào, Hoàn Kiếm, Hà Nội 11011, Vietnam",{},null,http://www.coccoffee.vn/,+84876775636,7PH72VM2+JP,1718,4.900000,null,21.034049,105.851807,,,,,,Asia/Saigon,,0x3135ab34b7240fab:0xf23e49221b90ced4,null,null,null,"{""link"":"""",""source"":""""}","{""id"":"""",""name"":"""",""link"":""""}","{""borough"":"""",""street"":"""",""city"":"""",""postal_code"":"""",""state"":"""",""country"":""""}",null,null,null,
88UVaZCuI4vk2roP5p306Qw,,Nola Cafe & Bar,,"in the alley, 89 Mã Mây, Hàng Buồm, Hoàn Kiếm, Hà Nội 100000, Vietnam",{},null,https://www.facebook.com/Nola.in.hanoi,+84865596190,7PH72VM3+P9,443,4.700000,null,21.034360,105.853481,,,,,,Asia/Saigon,,0x3135ab3d56e72d0f:0xda7783c8c1783743,null,null,null,"{""link"":"""",""source"":""""}","{""id"":"""",""name"":"""",""link"":""""}","{""borough"":"""",""street"":"""",""city"":"""",""postal_code"":"""",""state"":"""",""country"":""""}",null,null,null,
88UVaZCuI4vk2roP5p306Qw,,1984 Coffee & Drinks,,"18 Hàng Chĩnh Hà Nội, Hanoi City, 100000, Vietnam",{},null,https://1984studio.vn/,+84904750120,7PH72VP3+6C,1279,4.900000,null,21.035561,105.853559,,,,,,Asia/Saigon,,0x3135abb07379ba3d:0x1be9c7709f748240,null,null,null,"{""link"":"""",""source"":""""}","{""id"":"""",""name"":"""",""link"":""""}","{""borough"":"""",""street"":"""",""city"":"""",""postal_code"":"""",""state"":"""",""country"":""""}",null,null,null,
88UVaZCuI4vk2roP5p306Qw,,Coffee Nang,,"27 P. Đồng Xuân, Hàng Mã, Hoàn Kiếm, Hà Nội, Vietnam",{},null,https://www.facebook.com/share/19DxfqKegk/?mibextid=wwXIfr,,7PH72RPX+RQ,569,4.900000,null,21.037022,105.849482,,,,,,Asia/Saigon,,0x3135ab0245bf4613:0x8eab9cb5ddc4c25b,null,null,null,"{""link"":"""",""source"":""""}","{""id"":"""",""name"":"""",""link"":""""}","{""borough"":"""",""street"":"""",""city"":"""",""postal_code"":"""",""state"":"""",""country"":""""}",null,null,null,
88UVaZCuI4vk2roP5p306Qw,,Le Café - Coffee and Eatery,,"29 P. Lâm Hạ, Bồ Đề, Long Biên, Hà Nội 000084, Vietnam",{},null,https://www.facebook.com/profile.php?id=61553650340934&mibextid=LQQJ4d,,7PH72VPJ+PF,88,4.600000,null,21.036811,105.881246,,,,,,Asia/Saigon,,0x3135a91a7a0622d3:0xd219fbe99f9b9933,null,null,null,"{""link"":"""",""source"":""""}","{""id"":"""",""name"":"""",""link"":""""}","{""borough"":"""",""street"":"""",""city"":"""",""postal_code"":"""",""state"":"""",""country"":""""}",null,null,null,
88UVaZCuI4vk2roP5p306Qw,,Cafe Hà 68,,"3 ngõ 152 Đ. Lâm Du, View Hồ, Long Biên, Hà Nội, Vietnam",{},null,https://www.facebook.com/profile.php?id=61559445827074,+84393239383,7PH72VPC+RG,41,5.000000,null,21.037072,105.871331,,,,,,Asia/Saigon,,0x3135aba30b27edb7:0xeaf377682fb63606,null,null,null,"{""link"":"""",""source"":""""}","{""id"":"""",""name"":"""",""link"":""""}","{""borough"":"""",""street"":"""",""city"":"""",""postal_code"":"""",""state"":"""",""country"":""""}",null,null,null,
88UVaZCuI4vk2roP5p306Qw,,Sunset cafe,,"HC Golden city, Liền kề 23, khu đô thị, Hoàn Kiếm, Hà Nội, Vietnam",{},null,http://sunsetvietnam.vn/,+84925686699,7PH72VQG+VM,132,4.800000,null,21.039634,105.876716,,,,,,Asia/Saigon,,0x3135a928e3010acd:0xb4117e05c9afca0f,null,null,null,"{""link"":"""",""source"":""""}","{""id"":"""",""name"":"""",""link"":""""}","{""borough"":"""",""street"":"""",""city"":"""",""postal_code"":"""",""state"":"""",""country"":""""}",null,null,null,
9MUVaYKOI__l2roPzPGQ0AQ,,Nhà hàng Long Thành,,"Trạm thu phí Bắc Bỉm Sơn, Quốc lộ 1A, Khu phố 7, Bắc Sơn, Bỉm Sơn, Gần, P. Bắc Sơn, Hà Trung, Thanh Hóa, Vietnam",{},null,,+84385580660,7PG74RCX+WV,10,4.500000,null,20.122299,105.849673,,,,,,Asia/Saigon,,0x31366384e3a0cb57:0xc74177ddbc17b4ce,null,null,null,"{""link"":"""",""source"":""""}","{""id"":"""",""name"":"""",""link"":""""}","{""borough"":"""",""street"":"""",""city"":"""",""postal_code"":"""",""state"":"""",""country"":""""}",null,null,null,
9MUVaYKOI__l2roPzPGQ0AQ,,Nhà Hàng Đức Long 36,,"Trạm thu phí Bắc Bỉm Sơn, Quốc lộ 1A, Khu phố 7, Bắc Sơn, Bỉm Sơn Gần, P. Bắc Sơn, Bỉm Sơn, Thanh Hóa, Vietnam",{},null,https://www.facebook.com/NhaHangDucLong36/,+84982861526,7PG74RFX+3V,155,3.800000,null,20.122643,105.849729,,,,,,Asia/Saigon,,0x313663a19fd2c0d7:0xad4d75b853c30868,null,null,null,"{""link"":"""",""source"":""""}","{""id"":"""",""name"":"""",""link"":""""}","{""borough"":"""",""street"":"""",""city"":"""",""postal_code"":"""",""state"":"""",""country"":""""}",null,null,null,
9MUVaYKOI__l2roPzPGQ0AQ,,Nhà Hàng Hợi Thơm,,"Khu phố 7, Bắc Sơn, Tx. Bỉm Sơn, Thanh Hóa, Vietnam",{},null,,,7PG74RCX+6M,29,4.100000,null,20.120602,105.849189,,,,,,Asia/Saigon,,0x313663a3ce0c0059:0xbb23803e87ba96f8,null,null,null,"{""link"":"""",""source"":""""}","{""id"":"""",""name"":"""",""link"":""""}","{""borough"":"""",""street"":"""",""city"":"""",""postal_code"":"""",""state"":"""",""country"":""""}",null,null,null,
9MUVaYKOI__l2roPzPGQ0AQ,,Thanh Lâm,,"Khu phố 7, Bắc Sơn, Tx. Bỉm Sơn, Thanh Hóa, Vietnam",{},null,,,7PG74RCX+4P,1,5.000000,null,20.120266,105.849368,,,,,,Asia/Saigon,,0x313663a3cb841653:0x77319dd5cbe2a98e,null,null,null,"{""link"":"""",""source"":""""}","{""id"":"""",""name"":"""",""link"":""""}","{""borough"":"""",""street"":"""",""city"":"""",""postal_code"":"""",""state"":"""",""country"":""""}",null,null,null,
9MUVaYKOI__l2roPzPGQ0AQ,,Cơm Thu Hiền,,"4R9X+XQR, Khu phố 7, Hà Trung, Thanh Hóa, Vietnam",{},null,,+84979669568,7PG74R9X+XQ,136,3.800000,null,20.119989,105.849384,,,,,,Asia/Saigon,,0x313663a235690fff:0x2826412cb92f1341,null,null,null,"{""link"":"""",""source"":""""}","{""id"":"""",""name"":"""",""link"":""""}","{""borough"":"""",""street"":"""",""city"":"""",""postal_code"":"""",""state"":"""",""country"":""""}",null,null,null,
9MUVaYKOI__l2roPzPGQ0AQ,,Nhà hàng Trường Thịnh,,"Trạm thu phí Bắc Bỉm Sơn, Trạm thu phí Bỉm Sơn, P. Bắc Sơn, Hà Trung, Thanh Hóa, Vietnam",{},null,,,7PG74VF2+JH,3,3.700000,null,20.124073,105.851498,,,,,,Asia/Saigon,,0x3136631b257c6a8f:0xdd7ebe3bd68e9219,null,null,null,"{""link"":"""",""source"":""""}","{""id"":"""",""name"":"""",""link"":""""}","{""borough"":"""",""street"":"""",""city"":"""",""postal_code"":"""",""state"":"""",""country"":""""}",null,null,null,
9MUVaYKOI__l2roPzPGQ0AQ,,Nhà Hàng Tố Hoa,,"P. Bắc Sơn, Bỉm Sơn, Thanh Hóa, Vietnam",{},null,,+84943228169,7PG74R9X+RV,84,3.800000,null,20.119530,105.849668,,,,,,Asia/Saigon,,0x313663a24b556287:0xfb6998df826aa70a,null,null,null,"{""link"":"""",""source"":""""}","{""id"":"""",""name"":"""",""link"":""""}","{""borough"":"""",""street"":"""",""city"":"""",""postal_code"":"""",""state"":"""",""country"":""""}",null,null,null,
9MUVaYKOI__l2roPzPGQ0AQ,,Phong Dê Hà Nam,,"Số 27, Bỉm Sơn, Thanh Hóa 40750, Vietnam",{},null,,+84915938622,7PG74R9X+QV,0,0.000000,null,20.119475,105.849735,,,,,,Asia/Saigon,,0x313663ccae377ead:0xa7a22567e4c98715,null,null,null,"{""link"":"""",""source"":""""}","{""id"":"""",""name"":"""",""link"":""""}","{""borough"":"""",""street"":"""",""city"":"""",""postal_code"":"""",""state"":"""",""country"":""""}",null,null,null,
9MUVaYKOI__l2roPzPGQ0AQ,,Nhà Hàng Tuấn Hòa,,"4V92+92Q, P. Bắc Sơn, Bỉm Sơn, Thanh Hóa, Vietnam",{},null,,+84978576998,7PG74V92+92,136,3.900000,null,20.118458,105.850124,,,,,,Asia/Saigon,,0x313663a256250763:0x78725426d90f2fe4,null,null,null,"{""link"":"""",""source"":""""}","{""id"":"""",""name"":"""",""link"":""""}","{""borough"":"""",""street"":"""",""city"":"""",""postal_code"":"""",""state"":"""",""country"":""""}",null,null,null,
9MUVaYKOI__l2roPzPGQ0AQ,,Quang En Restaurant,,"Trạm thu phí Bắc Bỉm Sơn, Trạm thu phí Bỉm Sơn, P. Bắc Sơn, Hà Trung, Thanh Hóa, Vietnam",{},null,,+84366686652,7PG74VG3+52,197,3.800000,null,20.125468,105.852542,,,,,,Asia/Saigon,,0x313663a01fa23d8b:0xa443fa30871ded56,null,null,null,"{""link"":"""",""source"":""""}","{""id"":"""",""name"":"""",""link"":""""}","{""borough"":"""",""street"":"""",""city"":"""",""postal_code"":"""",""state"":"""",""country"":""""}",null,null,null,
9MUVaYKOI__l2roPzPGQ0AQ,,Cơm Thanh Tuấn,,"kp7 Bắc Sơn Bỉm Sơn, Thanh Hóa, Vietnam",{},null,,+84334141352,7PG74V92+44,7,4.000000,null,20.117752,105.850357,,,,,,Asia/Saigon,,0x313663a2f0744391:0x1ca3abab8aca4cac,null,null,null,"{""link"":"""",""source"":""""}","{""id"":"""",""name"":"""",""link"":""""}","{""borough"":"""",""street"":"""",""city"":"""",""postal_code"":"""",""state"":"""",""country"":""""}",null,null,null,
9MUVaYKOI__l2roPzPGQ0AQ,,Huy Hùng Cơm - Phở Bắc Nam,,"Khu phố 7, Bắc Sơn, Tx. Bỉm Sơn, Thanh Hóa, Vietnam",{},null,,,7PG74V92+34,3,4.700000,null,20.117718,105.850319,,,,,,Asia/Saigon,,0x313663a2faaad1b5:0x183159824c5f1f1e,null,null,null,"{""link"":"""",""source"":""""}","{""id"":"""",""name"":"""",""link"":""""}","{""borough"":"""",""street"":"""",""city"":"""",""postal_code"":"""",""state"":"""",""country"":""""}",null,null,null,
9MUVaYKOI__l2roPzPGQ0AQ,,Quán ăn Ninh Bình,,"123 QL1A, P. Bắc Sơn, Hà Trung, Thanh Hóa, Vietnam",{},null,,,7PG74VG3+72,9,4.100000,null,20.125718,105.852564,,,,,,Asia/Saigon,,0x313663ee5812ab81:0x8f6f02738cb9c3d8,null,null,null,"{""link"":"""",""source"":""""}","{""id"":"""",""name"":"""",""link"":""""}","{""borough"":"""",""street"":"""",""city"":"""",""postal_code"":"""",""state"":"""",""country"":""""}",null,null,null,
9MUVaYKOI__l2roPzPGQ0AQ,,Quán Cơm Long Biên,,"Khu phố 8, Bắc Sơn, Tx. Bỉm Sơn, Thanh Hóa, Vietnam",{},null,,,7PG74VG3+93,5,3.400000,null,20.125887,105.852682,,,,,,Asia/Saigon,,0x3136639ff65eb7d9:0x1c564d09fbaea078,null,null,null,"{""link"":"""",""source"":""""}","{""id"":"""",""name"":"""",""link"":""""}","{""borough"":"""",""street"":"""",""city"":"""",""postal_code"":"""",""state"":"""",""country"":""""}",null,null,null,
9MUVaYKOI__l2roPzPGQ0AQ,,Nhà hàng Tuyết Sáng,,"4VG3+F4R, Dốc Xây, P. Bắc Sơn, Hà Trung, Thanh Hóa, Vietnam",{},null,,,7PG74VG3+F4,108,3.300000,null,20.126240,105.852757,,,,,,Asia/Saigon,,0x313663c99959ab53:0x6cc3c393f6502974,null,null,null,"{""link"":"""",""source"":""""}","{""id"":"""",""name"":"""",""link"":""""}","{""borough"":"""",""street"":"""",""city"":"""",""postal_code"":"""",""state"":"""",""country"":""""}",null,null,null,
9MUVaYKOI__l2roPzPGQ0AQ,,Quán cơm cường xuân 2,,"4VG3+G5H, Khu 8, Tx. Bỉm Sơn, Thanh Hóa, Vietnam",{},null,,+84961740001,7PG74VG3+G5,1,5.000000,null,20.126322,105.852971,,,,,,Asia/Saigon,,0x31366325f6004e05:0xb58d29bebc4e170f,null,null,null,"{""link"":"""",""source"":""""}","{""id"":"""",""name"":"""",""link"":""""}","{""borough"":"""",""street"":"""",""city"":"""",""postal_code"":"""",""state"":"""",""country"":""""}",null,null,null,
9MUVaYKOI__l2roPzPGQ0AQ,,Luong Thuong Restaurant,,"Lê Lai, Nam Sơn, Tam Điệp, Ninh Bình, Vietnam",{},null,,+842293825192,7PG74VPF+J8,851,3.900000,null,20.136501,105.873258,,,,,,Asia/Saigon,,0x31366363257eb5df:0xb73123d56f9c3bc6,null,null,null,"{""link"":"""",""source"":""""}","{""id"":"""",""name"":"""",""link"":""""}","{""borough"":"""",""street"":"""",""city"":"""",""postal_code"":"""",""state"":"""",""country"":""""}",null,null,null,
9MUVaYKOI__l2roPzPGQ0AQ,,Rom Vang Restaurant,,"Đầu, Cầu Vĩnh Tuy Long Biên - Xuân Quan, Xuân Quan, Long Biên, Hà Nội, Vietnam",{},null,https://www.facebook.com/AmThucRomVang,+84844339888,7PH72VCV+5W,12,4.700000,null,21.020478,105.894815,,,,,,Asia/Saigon,,0x3135a99a32dbe27b:0x8e62f32a66b65d22,null,null,null,"{""link"":"""",""source"":""""}","{""id"":"""",""name"":"""",""link"":""""}","{""borough"":"""",""street"":"""",""city"":"""",""postal_code"":"""",""state"":"""",""country"":""""}",null,null,null,
9MUVaYKOI__l2roPzPGQ0AQ,,La Passion Restaurant,,"26 P. Hàng Thùng, Hàng Bạc, Hoàn Kiếm, Hà Nội 10000, Vietnam",{},null,http://lapassionhanoi.com/,+842422286688,7PH72VJ3+WP,430,4.800000,null,21.032251,105.854268,,,,,,Asia/Saigon,,0x3135abffa3dcb8eb:0xdb72be6087fba1e,null,null,null,"{""link"":"""",""source"":""""}","{""id"":"""",""name"":"""",""link"":""""}","{""borough"":"""",""street"":"""",""city"":"""",""postal_code"":"""",""state"":"""",""country"":""""}",null,null,null,
9MUVaYKOI__l2roPzPGQ0AQ,,UPPER CLOUD RESTAURANT LAKE VIEW,,"2 Ng. Cầu Gỗ, Hàng Bạc, Hoàn Kiếm, Hà Nội 10000, Vietnam",{},null,https://www.lucienhanoihotel.com/restaurant-and-bar,+84888026600,7PH72VM3+35,886,5.000000,null,21.032725,105.852947,,,,,,Asia/Saigon,,0x3135ab01b3cfd597:0xb816c9d2425a22bb,null,null,null,"{""link"":"""",""source"":""""}","{""id"":"""",""name"":"""",""link"":""""}","{""borough"":"""",""street"":"""",""city"":"""",""postal_code"":"""",""state"":"""",""country"":""""}",null,null,null,
9cUVaayhB4qN2roPp-mZ0Aw,,Nectar Hideaway: Speakeasy Rooftop Cocktails Bar,,"20 Tràng Tiền, Hoàn Kiếm, Hà Nội 128260, Vietnam",{},null,https://nectarhideaway.com/?utm_medium=gmap&utm_source=infomation,+84869452656,7PH72VF4+WC,335,4.900000,null,21.024798,105.856059,,,,,,Asia/Saigon,,0x3135ab86d8b030b3:0xb3aa63de34b71d51,null,null,null,"{""link"":"""",""source"":""""}","{""id"":"""",""name"":"""",""link"":""""}","{""borough"":"""",""street"":"""",""city"":"""",""postal_code"":"""",""state"":"""",""country"":""""}",null,null,null,
9cUVaayhB4qN2roPp-mZ0Aw,,Attic Cocktail & Wine Lab,,"02 P. Nguyễn Xí, Tràng Tiền, Hoàn Kiếm, Hà Nội, Vietnam",{},null,https://www.facebook.com/Attic.Cocktail.Lab/,+84915550202,7PH72VG3+5P,483,4.800000,null,21.025414,105.854322,,,,,,Asia/Saigon,,0x3135aba3013aeb95:0xfb7a7cb8e2638aa2,null,null,null,"{""link"":"""",""source"":""""}","{""id"":"""",""name"":"""",""link"":""""}","{""borough"":"""",""street"":"""",""city"":"""",""postal_code"":"""",""state"":"""",""country"":""""}",null,null,null,
9cUVaayhB4qN2roPp-mZ0Aw,,The Hudson Rooms,,"11 P. Lê Phụng Hiểu, French Quarter, Hoàn Kiếm, Hà Nội, Vietnam",{},null,https://capellahotels.com/en/capella-hanoi/dining/hudson-rooms,+842439878888,7PH72VG4+8M,274,4.900000,null,21.025790,105.856718,,,,,,Asia/Saigon,,0x3135ab212179c65b:0x11ae1e2cb2aea3dd,null,null,null,"{""link"":"""",""source"":""""}","{""id"":"""",""name"":"""",""link"":""""}","{""borough"":"""",""street"":"""",""city"":"""",""postal_code"":"""",""state"":"""",""country"":""""}",null,null,null,
9cUVaayhB4qN2roPp-mZ0Aw,,I&I cocktail castle,,"11 P. Tràng Thi, Tràng Tiền, Hoàn Kiếm, Hà Nội, Vietnam",{},null,,,7PH72VG2+F7,736,4.900000,null,21.026141,105.850678,,,,,,Asia/Saigon,,0x3135abe657402579:0xef72dca3ef01d88f,null,null,null,"{""link"":"""",""source"":""""}","{""id"":"""",""name"":"""",""link"":""""}","{""borough"":"""",""street"":"""",""city"":"""",""postal_code"":"""",""state"":"""",""country"":""""}",null,null,null,
9cUVaayhB4qN2roPp-mZ0Aw,,Moon Men Cocktail Bar,,"No 3 P. Ấu Triệu, Hàng Trống, Hoàn Kiếm, Hà Nội 10000, Vietnam",{},null,http://moonmenofficial.com/,+84834226868,7PH72RHX+C9,265,4.900000,null,21.028531,105.848389,,,,,,Asia/Saigon,,0x3135ab004b0cb337:0x3ceeb9026aae1194,null,null,null,"{""link"":"""",""source"":""""}","{""id"":"""",""name"":"""",""link"":""""}","{""borough"":"""",""street"":"""",""city"":"""",""postal_code"":"""",""state"":"""",""country"":""""}",null,null,null,
9cUVaayhB4qN2roPp-mZ0Aw,,SOL SKY BAR,,"Solaria Hotel, 22 P. Báo Khánh, street, Hoàn Kiếm, Hà Nội 10000, Vietnam",{},null,https://thesolariagroup.com/sol-sky-bar/,+84855666687,7PH72VJ2+34,792,4.900000,null,21.030185,105.850348,,,,,,Asia/Saigon,,0x3135ab685262fa43:0x938b52a35e5b8723,null,null,null,"{""link"":"""",""source"":""""}","{""id"":"""",""name"":"""",""link"":""""}","{""borough"":"""",""street"":"""",""city"":"""",""postal_code"":"""",""state"":"""",""country"":""""}",null,null,null,
9cUVaayhB4qN2roPp-mZ0Aw,,Le Ciel Bar,,"35 P. Hàng Trống, Phường Hoàn Kiếm, Hoàn Kiếm, Hà Nội, Vietnam",{},null,http://www.hoteldulachanoi.com/foods-and-beverage/le-ciel-sky-bar,+84912959906,7PH72RJX+7V,1215,4.900000,null,21.030660,105.849650,,,,,,Asia/Saigon,,0x3135ab40950bf8f9:0xd380a1fb642484a0,null,null,null,"{""link"":"""",""source"":""""}","{""id"":"""",""name"":"""",""link"":""""}","{""borough"":"""",""street"":"""",""city"":"""",""postal_code"":"""",""state"":"""",""country"":""""}",null,null,null,
9cUVaayhB4qN2roPp-mZ0Aw,,Solar Sky Bar,,"41 P. Hàng Bông, Hàng Trống, Hoàn Kiếm, Hà Nội 100000, Vietnam",{},null,https://solarskybar.com/,+842438316868,7PH72RJX+78,2205,4.900000,null,21.030672,105.848316,,,,,,Asia/Saigon,,0x3136f943a5d2087f:0xff6abaadc9cb2efe,null,null,null,"{""link"":"""",""source"":""""}","{""id"":"""",""name"":"""",""link"":""""}","{""borough"":"""",""street"":"""",""city"":"""",""postal_code"":"""",""state"":"""",""country"":""""}",null,null,null,
9cUVaayhB4qN2roPp-mZ0Aw,,Cloud Sky Bar Hanoi,,"of JM Marvel Hotel, 16 P. Hàng Da, Str, Hoàn Kiếm, Hà Nội 100000, Vietnam",{},null,https://cloudskybar.com/,+842438238855,7PH72RJW+9J,2739,4.900000,null,21.030992,105.846613,,,,,,Asia/Saigon,,0x3135ab15474b15df:0x45558b5af1d82f7b,null,null,null,"{""link"":"""",""source"":""""}","{""id"":"""",""name"":"""",""link"":""""}","{""borough"":"""",""street"":"""",""city"":"""",""postal_code"":"""",""state"":"""",""country"":""""}",null,null,null,
9cUVaayhB4qN2roPp-mZ0Aw,,The Luxe Bar,,"27 Ng. Hàng Hành, Hàng Trống, Hoàn Kiếm, Hà Nội 10000, Vietnam",{},null,https://www.lepremierhotel.com/,+84915933688,7PH72VJ2+G4,417,5.000000,null,21.031342,105.850299,,,,,,Asia/Saigon,,0x3135ab3c70da6adf:0xc0a0586dbc7c745b,null,null,null,"{""link"":"""",""source"":""""}","{""id"":"""",""name"":"""",""link"":""""}","{""borough"":"""",""street"":"""",""city"":"""",""postal_code"":"""",""state"":"""",""country"":""""}",null,null,null,
9cUVaayhB4qN2roPp-mZ0Aw,,Lux SkyBar,,"11 P. Hàng Dầu, Hàng Bạc, Hoàn Kiếm, Hà Nội 100000, Vietnam",{},null,http://mediahotelhanoi.com/,+84987903019,7PH72VJ3+PH,301,4.900000,null,21.031836,105.853985,,,,,,Asia/Saigon,,0x3135abba3261706d:0x2e6d0373d44ba1ec,null,null,null,"{""link"":"""",""source"":""""}","{""id"":"""",""name"":"""",""link"":""""}","{""borough"":"""",""street"":"""",""city"":"""",""postal_code"":"""",""state"":"""",""country"":""""}",null,null,null,
9cUVaayhB4qN2roPp-mZ0Aw,,TIPSY LOONG,,"19 P. Nguyễn Quang Bích, Cửa Đông, Hoàn Kiếm, Hà Nội, Vietnam",{},null,,+84898816996,7PH72RJW+R9,245,5.000000,null,21.032033,105.845958,,,,,,Asia/Saigon,,0x3135abf5df8f7f63:0x4809f04826a82014,null,null,null,"{""link"":"""",""source"":""""}","{""id"":"""",""name"":"""",""link"":""""}","{""borough"":"""",""street"":"""",""city"":"""",""postal_code"":"""",""state"":"""",""country"":""""}",null,null,null,
9cUVaayhB4qN2roPp-mZ0Aw,,Majesty Sky Bar,,"Rooftop, No 01 P. Cầu Gỗ, Hoàn Kiếm, Hà Nội 100000, Vietnam",{},null,https://lasinfoniavietnam.com/majestybar/,+84969321069,7PH72VJ3+RC,65,4.800000,null,21.032072,105.853503,,,,,,Asia/Saigon,,0x3135abed76a05d47:0xbe91b21a3dc2ab18,null,null,null,"{""link"":"""",""source"":""""}","{""id"":"""",""name"":"""",""link"":""""}","{""borough"":"""",""street"":"""",""city"":"""",""postal_code"":"""",""state"":"""",""country"":""""}",null,null,null,
9cUVaayhB4qN2roPp-mZ0Aw,,La Sen Restaurant & Sky Bar,,"7 P. Cầu Gỗ, Hàng Bạc, Hoàn Kiếm, Hà Nội, Vietnam",{},null,https://www.facebook.com/profile.php?id=61554781591028,+84867679067,7PH72VJ3+VC,243,4.900000,null,21.032126,105.853508,,,,,,Asia/Saigon,,0x3135ab0054010f03:0x5812ced05feacf46,null,null,null,"{""link"":"""",""source"":""""}","{""id"":"""",""name"":"""",""link"":""""}","{""borough"":"""",""street"":"""",""city"":"""",""postal_code"":"""",""state"":"""",""country"":""""}",null,null,null,
9cUVaayhB4qN2roPp-mZ0Aw,,Starlight Skybar,,"Tầng 12, 61 Hàng Bè Hà Nội Hanoi City, 100000, Vietnam",{},null,https://aurorahotels.vn/premium-hangbe/dining/starlight-skybar,+84908882222,7PH72VJ3+XG,153,4.600000,null,21.032424,105.853866,,,,,,Asia/Saigon,,0x3135ab7502e95ac3:0x7eb7c8ff1bd41be3,null,null,null,"{""link"":"""",""source"":""""}","{""id"":"""",""name"":"""",""link"":""""}","{""borough"":"""",""street"":"""",""city"":"""",""postal_code"":"""",""state"":"""",""country"":""""}",null,null,null,
9cUVaayhB4qN2roPp-mZ0Aw,,UPPER CLOUD SKY BAR,,"2 Ng. Cầu Gỗ, Hàng Bạc, Hoàn Kiếm, Hà Nội 10000, Vietnam",{},null,https://www.lucienhanoihotel.com/restaurant-and-bar,+842433796666,7PH72VM3+45,301,4.900000,null,21.032767,105.852940,,,,,,Asia/Saigon,,0x3135ab36d1ea5b0f:0xf91af0a55dd6bf53,null,null,null,"{""link"":"""",""source"":""""}","{""id"":"""",""name"":"""",""link"":""""}","{""borough"":"""",""street"":"""",""city"":"""",""postal_code"":"""",""state"":"""",""country"":""""}",null,null,null,
9cUVaayhB4qN2roPp-mZ0Aw,,The Balcony Beer,,"7 phố P. Đinh Liệt, Hàng Đào, Hoàn Kiếm, Hà Nội 10000, Vietnam",{},null,,+84964375588,7PH72VM2+5Q,2411,4.900000,null,21.032988,105.851949,,,,,,Asia/Saigon,,0x3135ab75ebf7a637:0xc767e5eafc5ff27f,null,null,null,"{""link"":"""",""source"":""""}","{""id"":"""",""name"":"""",""link"":""""}","{""borough"":"""",""street"":"""",""city"":"""",""postal_code"":"""",""state"":"""",""country"":""""}",null,null,null,
9cUVaayhB4qN2roPp-mZ0Aw,,Moonlight Sky Bar,,"94 Mã Mây, street, Hoàn Kiếm, Hà Nội 100000, Vietnam",{},null,https://skybars.vn/moonlight-sky-bar/,+842439263641,7PH72VM3+M7,963,4.900000,null,21.034225,105.853203,,,,,,Asia/Saigon,,0x3135ab6bb7e5b86f:0xf93962f72ba711f6,null,null,null,"{""link"":"""",""source"":""""}","{""id"":"""",""name"":"""",""link"":""""}","{""borough"":"""",""street"":"""",""city"":"""",""postal_code"":"""",""state"":"""",""country"":""""}",null,null,null,
9cUVaayhB4qN2roPp-mZ0Aw,,Upper Haven Sky Bar,,"21 P. Lương Ngọc Quyến, Hàng Buồm, Hoàn Kiếm, Hà Nội, Vietnam",{},null,https://upperhavenskybar.com/,+842439322233,7PH72VM3+R5,1079,5.000000,null,21.034589,105.852951,,,,,,Asia/Saigon,,0x3135abeaa05b3aff:0x5b0d2da716455e1e,null,null,null,"{""link"":"""",""source"":""""}","{""id"":"""",""name"":"""",""link"":""""}","{""borough"":"""",""street"":"""",""city"":"""",""postal_code"":"""",""state"":"""",""country"":""""}",null,null,null,
9cUVaayhB4qN2roPp-mZ0Aw,,HIDDEN PUB HANOI,,"12 P. Tạ Hiện, Hàng Buồm, Hoàn Kiếm, Hà Nội, Vietnam",{},null,https://www.facebook.com/hiddenpub.hanoi,+84342486408,7PH72VM2+XR,580,4.900000,null,21.034965,105.852047,,,,,,Asia/Saigon,,0x3135abb90ae7d3ab:0xdb563b80b27a3545,null,null,null,"{""link"":"""",""source"":""""}","{""id"":"""",""name"":"""",""link"":""""}","{""borough"":"""",""street"":"""",""city"":"""",""postal_code"":"""",""state"":"""",""country"":""""}",null,null,null,
9sUVaanXA-DP2roP0MWX-QU,,Quán cơm cây sung,,"87 Dốc Xây, Khu phố 8, Hà Trung, Thanh Hóa, Vietnam",{},null,,,7PG74VH4+JM,1,3.000000,null,20.129036,105.856733,,,,,,Asia/Saigon,,0x3136630072465455:0xfba9e184d477b3ad,null,null,null,"{""link"":"""",""source"":""""}","{""id"":"""",""name"":"""",""link"":""""}","{""borough"":"""",""street"":"""",""city"":"""",""postal_code"":"""",""state"":"""",""country"":""""}",null,null,null,
9sUVaanXA-DP2roP0MWX-QU,,Cửa Hàng Hoa Quả Bà Lan,,"50 Đ. Trần Hưng Đạo, P. Bắc Sơn, Bỉm Sơn, Thanh Hóa, Vietnam",{},null,,,7PG73VX5+38,0,0.000000,null,20.097732,105.858360,,,,,,Asia/Saigon,,0x313663491ef3ef53:0x6f76dfcdbd14ca12,null,null,null,"{""link"":"""",""source"":""""}","{""id"":"""",""name"":"""",""link"":""""}","{""borough"":"""",""street"":"""",""city"":"""",""postal_code"":"""",""state"":"""",""country"":""""}",null,null,null,
9sUVaanXA-DP2roP0MWX-QU,,Bich Dong Local Beverage & Fastfood,,"6W98+8Q6, Đầm Sen Bích Động, Hải Nham, Hoa Lư, Ninh Bình 08252, Vietnam",{},null,,,7PG76W98+8Q,41,4.500000,null,20.218287,105.916889,,,,,,Asia/Saigon,,0x31367b9e8a0baa63:0x6452b07be8fd2375,null,null,null,"{""link"":"""",""source"":""""}","{""id"":"""",""name"":"""",""link"":""""}","{""borough"":"""",""street"":"""",""city"":"""",""postal_code"":"""",""state"":"""",""country"":""""}",null,null,null,
9sUVaanXA-DP2roP0MWX-QU,,DUC DAT Fastfood and Drink,,"Đội 1 _ Văn Lâm_Ninh Hải_Hoa Lư_Ninh, Bình Văn Lâm, Ninh Bình, 430000, Vietnam",{},null,,+84844484208,7PG76W8Q+V2,345,4.800000,null,20.217222,105.937525,,,,,,Asia/Saigon,,0x31367bd20a1f602b:0xeb6b6709931b1464,null,null,null,"{""link"":"""",""source"":""""}","{""id"":"""",""name"":"""",""link"":""""}","{""borough"":"""",""street"":"""",""city"":"""",""postal_code"":"""",""state"":"""",""country"":""""}",null,null,null,
9sUVaanXA-DP2roP0MWX-QU,,Natural fast food restaurant - bar,,"6W9P+RFF, Unnamed, Road, Hoa Lư, Ninh Bình 430000, Vietnam",{},null,,+84858853760,7PG76W9P+RF,111,4.800000,null,20.219562,105.936187,,,,,,Asia/Saigon,,0x31367be5cdd6df7d:0x5d060c7c3fd58a23,null,null,null,"{""link"":"""",""source"":""""}","{""id"":"""",""name"":"""",""link"":""""}","{""borough"":"""",""street"":"""",""city"":"""",""postal_code"":"""",""state"":"""",""country"":""""}",null,null,null,
9sUVaanXA-DP2roP0MWX-QU,,Minh Dat Fastfood & Drink,,"Tràng An, Trường Yên, Hoa Lư, Ninh Bình 430000, Vietnam",{},null,,+84974308579,7PG77W79+5F,88,5.000000,null,20.262933,105.918666,,,,,,Asia/Saigon,,0x313679c782cc913d:0xcd64177d03826ff3,null,null,null,"{""link"":"""",""source"":""""}","{""id"":"""",""name"":"""",""link"":""""}","{""borough"":"""",""street"":"""",""city"":"""",""postal_code"":"""",""state"":"""",""country"":""""}",null,null,null,
9sUVaanXA-DP2roP0MWX-QU,,Tràng an Riverside Drink@Food - fast food,,"Trường Yên, Ninh Bình, Vietnam",{},null,,+84974574102,7PG77WC6+3W,20,5.000000,null,20.270143,105.912319,,,,,,Asia/Saigon,,0x313679000b0e02a3:0x197e6d689b97969d,null,null,null,"{""link"":"""",""source"":""""}","{""id"":"""",""name"":"""",""link"":""""}","{""borough"":"""",""street"":"""",""city"":"""",""postal_code"":"""",""state"":"""",""country"":""""}",null,null,null,
9sUVaanXA-DP2roP0MWX-QU,,Gia Bảo Minimart & Fastfood,,"Tràng An, Trường Yên, Hoa Lư, Ninh Bình, Vietnam",{},null,,+84862587367,7PG77WC7+79,116,4.900000,null,20.270728,105.913415,,,,,,Asia/Saigon,,0x313679c05d3b3b4b:0xef5eae1efda0bfb6,null,null,null,"{""link"":"""",""source"":""""}","{""id"":"""",""name"":"""",""link"":""""}","{""borough"":"""",""street"":"""",""city"":"""",""postal_code"":"""",""state"":"""",""country"":""""}",null,null,null,
9sUVaanXA-DP2roP0MWX-QU,,Hải Đăng Fastfood,,"Tràng An, Trường Yên, Hoa Lư, Ninh Bình, Vietnam",{},null,,+84984295811,7PG77WF6+FW,541,4.900000,null,20.273740,105.912306,,,,,,Asia/Saigon,,0x313679be8b54c1d3:0x21d8dbd3877030a0,null,null,null,"{""link"":"""",""source"":""""}","{""id"":"""",""name"":"""",""link"":""""}","{""borough"":"""",""street"":"""",""city"":"""",""postal_code"":"""",""state"":"""",""country"":""""}",null,null,null,
9sUVaanXA-DP2roP0MWX-QU,,UMY Food and Drinks,,"41b Ngõ 124 Phố Vĩnh Tuy, Vĩnh Phú, Hai Bà Trưng, Hà Nội, Vietnam",{},null,,+84982556083,7PG7XVXG+VR,4,5.000000,null,20.999720,105.877103,,,,,,Asia/Saigon,,0x3135af000d12fc7f:0x7247f054ef377f9e,null,null,null,"{""link"":"""",""source"":""""}","{""id"":"""",""name"":"""",""link"":""""}","{""borough"":"""",""street"":"""",""city"":"""",""postal_code"":"""",""state"":"""",""country"":""""}",null,null,null,
9sUVaanXA-DP2roP0MWX-QU,,Bếp Ngân Hà-Bún Riêu Cua & Lẩu Riêu Cua Bánh Đúc,,"305 Đ. Bát Khối, Long Biên, Hà Nội, Vietnam",{},null,https://shopeefood.vn/ha-noi/bun-rieu-lau-rieu-cua-banh-duc-bat-khoi?shareChannel=copy_link&smtt=0.0.9,+84366252706,7PH72VCV+QM,1,5.000000,null,21.021978,105.894171,,,,,,Asia/Saigon,,0x3135a96b418ce395:0x188c08883111776e,null,null,null,"{""link"":"""",""source"":""""}","{""id"":"""",""name"":"""",""link"":""""}","{""borough"":"""",""street"":"""",""city"":"""",""postal_code"":"""",""state"":"""",""country"":""""}",null,null,null,
9sUVaanXA-DP2roP0MWX-QU,,Đôi nét Việt & Trung 烹饪文化 Xiên nướng Trung Hoa & Đồ ăn vặt Việt,,"24 P. Ngọc Trì, Thạch Bàn, Long Biên, Hà Nội 11800, Vietnam",{},null,,+84981328283,7PH72WC4+VG,48,4.900000,null,21.022144,105.906299,,,,,,Asia/Saigon,,0x3135a98a0a917589:0xb1907014c8b181c2,null,null,null,"{""link"":"""",""source"":""""}","{""id"":"""",""name"":"""",""link"":""""}","{""borough"":"""",""street"":"""",""city"":"""",""postal_code"":"""",""state"":"""",""country"":""""}",null,null,null,
9sUVaanXA-DP2roP0MWX-QU,,McDonald's Hồ Gươm,,"2 P. Hàng Bài, Tràng Tiền, Hoàn Kiếm, Hà Nội, Vietnam",{},null,https://mcdonalds.vn/,+842439338080,7PH72VG3+46,4213,4.000000,null,21.025365,105.853042,,,,,,Asia/Saigon,,0x3135abeb5042e3b1:0xebe111cd07a0bb1a,null,null,null,"{""link"":"""",""source"":""""}","{""id"":"""",""name"":"""",""link"":""""}","{""borough"":"""",""street"":"""",""city"":"""",""postal_code"":"""",""state"":"""",""country"":""""}",null,null,null,
9sUVaanXA-DP2roP0MWX-QU,,McDonald's Aeon Mall Long Bien,,"27 Đ. Cổ Linh, Long Biên, Hà Nội 10000, Vietnam",{},null,https://mcdonalds.vn/,+842432323334,7PH72VGX+PR,438,4.300000,null,21.026762,105.899531,,,,,,Asia/Saigon,,0x3135a9cd62de4b49:0x7236b901ebce480c,null,null,null,"{""link"":"""",""source"":""""}","{""id"":"""",""name"":"""",""link"":""""}","{""borough"":"""",""street"":"""",""city"":"""",""postal_code"":"""",""state"":"""",""country"":""""}",null,null,null,
9sUVaanXA-DP2roP0MWX-QU,,Lotteria Aeon Mall Long Bien,,"27 Đ. Cổ Linh, Long Biên, Hà Nội, Vietnam",{},null,http://www.lotteria.vn/,+8419006778,7PH72VGX+PV,490,4.200000,null,21.026841,105.899692,,,,,,Asia/Saigon,,0x3135a9ac6ed7034f:0xfc552f767d0e8071,null,null,null,"{""link"":"""",""source"":""""}","{""id"":"""",""name"":"""",""link"":""""}","{""borough"":"""",""street"":"""",""city"":"""",""postal_code"":"""",""state"":"""",""country"":""""}",null,null,null,
9sUVaanXA-DP2roP0MWX-QU,,Dairy Queen Aeon Mall Long Bien,,"T238, Tang 2, TTTM Aeon Mall 27 Cổ Linh, p. Long Biên, Long Biên, Hà Nội, Vietnam",{},null,,+842466667788,7PH72VGX+VM,48,3.000000,null,21.027214,105.899226,,,,,,Asia/Saigon,,0x3135a96ab447e0ab:0x9951c3f7f24e8586,null,null,null,"{""link"":"""",""source"":""""}","{""id"":"""",""name"":"""",""link"":""""}","{""borough"":"""",""street"":"""",""city"":"""",""postal_code"":"""",""state"":"""",""country"":""""}",null,null,null,
9sUVaanXA-DP2roP0MWX-QU,,Jollibee Aeon Mall Long Bien,,"Trung tâm Thương mại Aeon Mall, Đ. Cổ Linh, Long Biên, Hà Nội, Vietnam",{},null,https://jollibee.com.vn/,+842432003392,7PH72VGX+XG,1826,4.500000,null,21.027436,105.898796,,,,,,Asia/Saigon,,0x3135a96af469b98f:0xa0199b661b4885cf,null,null,null,"{""link"":"""",""source"":""""}","{""id"":"""",""name"":"""",""link"":""""}","{""borough"":"""",""street"":"""",""city"":"""",""postal_code"":"""",""state"":"""",""country"":""""}",null,null,null,
9sUVaanXA-DP2roP0MWX-QU,,Bún riêu cua linh,,"Long, Long Biên, Hà Nội, Vietnam",{},null,,+84975163684,7PH72VHJ+WF,0,0.000000,null,21.029767,105.881152,,,,,,Asia/Saigon,,0x3135a91d7c771c2b:0xab261d1f00ffe7d8,null,null,null,"{""link"":"""",""source"":""""}","{""id"":"""",""name"":"""",""link"":""""}","{""borough"":"""",""street"":"""",""city"":"""",""postal_code"":"""",""state"":"""",""country"":""""}",null,null,null,
9sUVaanXA-DP2roP0MWX-QU,,S&L's Diner Duong Thanh,,"24 P. Đường Thành, Cửa Đông, Hoàn Kiếm, Hà Nội, Vietnam",{},null,http://sldiner.com/,+842437100529,7PH72RJW+VJ,2958,4.700000,null,21.032134,105.846518,,,,,,Asia/Saigon,,0x3135ab9564e13533:0x3ae279f69fbac4c2,null,null,null,"{""link"":"""",""source"":""""}","{""id"":"""",""name"":"""",""link"":""""}","{""borough"":"""",""street"":"""",""city"":"""",""postal_code"":"""",""state"":"""",""country"":""""}",null,null,null,
9sUVaanXA-DP2roP0MWX-QU,,KFC,,"3C P. Lê Thái Tổ, Hàng Trống, Hoàn Kiếm, Hà Nội 100000, Vietnam",{},null,https://kfcvietnam.com.vn/vn,,7PH72VJ2+VG,2229,4.700000,null,21.032179,105.851259,,,,,,Asia/Saigon,,0x3135abba0cda81cb:0x3c3e1e4d409a690f,null,null,null,"{""link"":"""",""source"":""""}","{""id"":"""",""name"":"""",""link"":""""}","{""borough"":"""",""street"":"""",""city"":"""",""postal_code"":"""",""state"":"""",""country"":""""}",null,null,null,
9sUVaZysMKOu0-kPuIer4QM,,Nhà hàng Long Thành,,"Trạm thu phí Bắc Bỉm Sơn, Quốc lộ 1A, Khu phố 7, Bắc Sơn, Bỉm Sơn, Gần, P. Bắc Sơn, Hà Trung, Thanh Hóa, Vietnam",{},null,,+84385580660,7PG74RCX+WV,10,4.500000,null,20.122299,105.849673,,,,,,Asia/Saigon,,0x31366384e3a0cb57:0xc74177ddbc17b4ce,null,null,null,"{""link"":"""",""source"":""""}","{""id"":"""",""name"":"""",""link"":""""}","{""borough"":"""",""street"":"""",""city"":"""",""postal_code"":"""",""state"":"""",""country"":""""}",null,null,null,
9sUVaZysMKOu0-kPuIer4QM,,Nhà Hàng Đức Long 36,,"Trạm thu phí Bắc Bỉm Sơn, Quốc lộ 1A, Khu phố 7, Bắc Sơn, Bỉm Sơn Gần, P. Bắc Sơn, Bỉm Sơn, Thanh Hóa, Vietnam",{},null,https://www.facebook.com/NhaHangDucLong36/,+84982861526,7PG74RFX+3V,155,3.800000,null,20.122643,105.849729,,,,,,Asia/Saigon,,0x313663a19fd2c0d7:0xad4d75b853c30868,null,null,null,"{""link"":"""",""source"":""""}","{""id"":"""",""name"":"""",""link"":""""}","{""borough"":"""",""street"":"""",""city"":"""",""postal_code"":"""",""state"":"""",""country"":""""}",null,null,null,
9sUVaZysMKOu0-kPuIer4QM,,Nhà Hàng Hợi Thơm,,"Khu phố 7, Bắc Sơn, Tx. Bỉm Sơn, Thanh Hóa, Vietnam",{},null,,,7PG74RCX+6M,29,4.100000,null,20.120602,105.849189,,,,,,Asia/Saigon,,0x313663a3ce0c0059:0xbb23803e87ba96f8,null,null,null,"{""link"":"""",""source"":""""}","{""id"":"""",""name"":"""",""link"":""""}","{""borough"":"""",""street"":"""",""city"":"""",""postal_code"":"""",""state"":"""",""country"":""""}",null,null,null,
9sUVaZysMKOu0-kPuIer4QM,,Thanh Lâm,,"Khu phố 7, Bắc Sơn, Tx. Bỉm Sơn, Thanh Hóa, Vietnam",{},null,,,7PG74RCX+4P,1,5.000000,null,20.120266,105.849368,,,,,,Asia/Saigon,,0x313663a3cb841653:0x77319dd5cbe2a98e,null,null,null,"{""link"":"""",""source"":""""}","{""id"":"""",""name"":"""",""link"":""""}","{""borough"":"""",""street"":"""",""city"":"""",""postal_code"":"""",""state"":"""",""country"":""""}",null,null,null,
9sUVaZysMKOu0-kPuIer4QM,,Cơm Thu Hiền,,"4R9X+XQR, Khu phố 7, Hà Trung, Thanh Hóa, Vietnam",{},null,,+84979669568,7PG74R9X+XQ,136,3.800000,null,20.119989,105.849384,,,,,,Asia/Saigon,,0x313663a235690fff:0x2826412cb92f1341,null,null,null,"{""link"":"""",""source"":""""}","{""id"":"""",""name"":"""",""link"":""""}","{""borough"":"""",""street"":"""",""city"":"""",""postal_code"":"""",""state"":"""",""country"":""""}",null,null,null,
9sUVaZysMKOu0-kPuIer4QM,,Nhà hàng Trường Thịnh,,"Trạm thu phí Bắc Bỉm Sơn, Trạm thu phí Bỉm Sơn, P. Bắc Sơn, Hà Trung, Thanh Hóa, Vietnam",{},null,,,7PG74VF2+JH,3,3.700000,null,20.124073,105.851498,,,,,,Asia/Saigon,,0x3136631b257c6a8f:0xdd7ebe3bd68e9219,null,null,null,"{""link"":"""",""source"":""""}","{""id"":"""",""name"":"""",""link"":""""}","{""borough"":"""",""street"":"""",""city"":"""",""postal_code"":"""",""state"":"""",""country"":""""}",null,null,null,
9sUVaZysMKOu0-kPuIer4QM,,Nhà Hàng Tố Hoa,,"P. Bắc Sơn, Bỉm Sơn, Thanh Hóa, Vietnam",{},null,,+84943228169,7PG74R9X+RV,84,3.800000,null,20.119530,105.849668,,,,,,Asia/Saigon,,0x313663a24b556287:0xfb6998df826aa70a,null,null,null,"{""link"":"""",""source"":""""}","{""id"":"""",""name"":"""",""link"":""""}","{""borough"":"""",""street"":"""",""city"":"""",""postal_code"":"""",""state"":"""",""country"":""""}",null,null,null,
9sUVaZysMKOu0-kPuIer4QM,,Quán nước Hưng Hà,,"km286+397, QL 1A Trạm thu phí Bỉm Sơn, QL1A, Khu phố 8, Hà Trung, Thanh Hóa 40750, Vietnam",{},null,,,7PG74VF2+RP,4,5.000000,null,20.124611,105.851855,,,,,,Asia/Saigon,,0x3136630154162437:0x683d8757b11deb39,null,null,null,"{""link"":"""",""source"":""""}","{""id"":"""",""name"":"""",""link"":""""}","{""borough"":"""",""street"":"""",""city"":"""",""postal_code"":"""",""state"":"""",""country"":""""}",null,null,null,
9sUVaZysMKOu0-kPuIer4QM,,Nhà Hàng Tuấn Hòa,,"4V92+92Q, P. Bắc Sơn, Bỉm Sơn, Thanh Hóa, Vietnam",{},null,,+84978576998,7PG74V92+92,136,3.900000,null,20.118458,105.850124,,,,,,Asia/Saigon,,0x313663a256250763:0x78725426d90f2fe4,null,null,null,"{""link"":"""",""source"":""""}","{""id"":"""",""name"":"""",""link"":""""}","{""borough"":"""",""street"":"""",""city"":"""",""postal_code"":"""",""state"":"""",""country"":""""}",null,null,null,
9sUVaZysMKOu0-kPuIer4QM,,Quang En Restaurant,,"Trạm thu phí Bắc Bỉm Sơn, Trạm thu phí Bỉm Sơn, P. Bắc Sơn, Hà Trung, Thanh Hóa, Vietnam",{},null,,+84366686652,7PG74VG3+52,197,3.800000,null,20.125468,105.852542,,,,,,Asia/Saigon,,0x313663a01fa23d8b:0xa443fa30871ded56,null,null,null,"{""link"":"""",""source"":""""}","{""id"":"""",""name"":"""",""link"":""""}","{""borough"":"""",""street"":"""",""city"":"""",""postal_code"":"""",""state"":"""",""country"":""""}",null,null,null,
9sUVaZysMKOu0-kPuIer4QM,,Cơm Thanh Tuấn,,"kp7 Bắc Sơn Bỉm Sơn, Thanh Hóa, Vietnam",{},null,,+84334141352,7PG74V92+44,7,4.000000,null,20.117752,105.850357,,,,,,Asia/Saigon,,0x313663a2f0744391:0x1ca3abab8aca4cac,null,null,null,"{""link"":"""",""source"":""""}","{""id"":"""",""name"":"""",""link"":""""}","{""borough"":"""",""street"":"""",""city"":"""",""postal_code"":"""",""state"":"""",""country"":""""}",null,null,null,
9sUVaZysMKOu0-kPuIer4QM,,Huy Hùng Cơm - Phở Bắc Nam,,"Khu phố 7, Bắc Sơn, Tx. Bỉm Sơn, Thanh Hóa, Vietnam",{},null,,,7PG74V92+34,3,4.700000,null,20.117718,105.850319,,,,,,Asia/Saigon,,0x313663a2faaad1b5:0x183159824c5f1f1e,null,null,null,"{""link"":"""",""source"":""""}","{""id"":"""",""name"":"""",""link"":""""}","{""borough"":"""",""street"":"""",""city"":"""",""postal_code"":"""",""state"":"""",""country"":""""}",null,null,null,
9sUVaZysMKOu0-kPuIer4QM,,Quán ăn Ninh Bình,,"123 QL1A, P. Bắc Sơn, Hà Trung, Thanh Hóa, Vietnam",{},null,,,7PG74VG3+72,9,4.100000,null,20.125718,105.852564,,,,,,Asia/Saigon,,0x313663ee5812ab81:0x8f6f02738cb9c3d8,null,null,null,"{""link"":"""",""source"":""""}","{""id"":"""",""name"":"""",""link"":""""}","{""borough"":"""",""street"":"""",""city"":"""",""postal_code"":"""",""state"":"""",""country"":""""}",null,null,null,
9sUVaZysMKOu0-kPuIer4QM,,Quán Cơm Long Biên,,"Khu phố 8, Bắc Sơn, Tx. Bỉm Sơn, Thanh Hóa, Vietnam",{},null,,,7PG74VG3+93,5,3.400000,null,20.125887,105.852682,,,,,,Asia/Saigon,,0x3136639ff65eb7d9:0x1c564d09fbaea078,null,null,null,"{""link"":"""",""source"":""""}","{""id"":"""",""name"":"""",""link"":""""}","{""borough"":"""",""street"":"""",""city"":"""",""postal_code"":"""",""state"":"""",""country"":""""}",null,null,null,
9sUVaZysMKOu0-kPuIer4QM,,Nhà hàng Tuyết Sáng,,"4VG3+F4R, Dốc Xây, P. Bắc Sơn, Hà Trung, Thanh Hóa, Vietnam",{},null,,,7PG74VG3+F4,108,3.300000,null,20.126240,105.852757,,,,,,Asia/Saigon,,0x313663c99959ab53:0x6cc3c393f6502974,null,null,null,"{""link"":"""",""source"":""""}","{""id"":"""",""name"":"""",""link"":""""}","{""borough"":"""",""street"":"""",""city"":"""",""postal_code"":"""",""state"":"""",""country"":""""}",null,null,null,
9sUVaZysMKOu0-kPuIer4QM,,Quán cơm cường xuân 2,,"4VG3+G5H, Khu 8, Tx. Bỉm Sơn, Thanh Hóa, Vietnam",{},null,,+84961740001,7PG74VG3+G5,1,5.000000,null,20.126322,105.852971,,,,,,Asia/Saigon,,0x31366325f6004e05:0xb58d29bebc4e170f,null,null,null,"{""link"":"""",""source"":""""}","{""id"":"""",""name"":"""",""link"":""""}","{""borough"":"""",""street"":"""",""city"":"""",""postal_code"":"""",""state"":"""",""country"":""""}",null,null,null,
9sUVaZysMKOu0-kPuIer4QM,,Trạm dừng chân Nam Sơn,,"52 Bà Triệu, khu phố 6, Bỉm Sơn, Thanh Hóa, Vietnam",{},null,,+84919254657,7PG74R8X+GX,445,3.200000,null,20.116263,105.849958,,,,,,Asia/Saigon,,0x31366357d0cc9fd9:0x2e12b05d4cd7d950,null,null,null,"{""link"":"""",""source"":""""}","{""id"":"""",""name"":"""",""link"":""""}","{""borough"":"""",""street"":"""",""city"":"""",""postal_code"":"""",""state"":"""",""country"":""""}",null,null,null,
9sUVaZysMKOu0-kPuIer4QM,,Quán Cơm Cường Xuân,,"4VG3+R9H, P. Bắc Sơn, Hà Trung, Thanh Hóa, Vietnam",{},null,,+84987940094,7PG74VG3+R9,141,4.100000,null,20.127058,105.853487,,,,,,Asia/Saigon,,0x313663755a756099:0x22fd8df932f83437,null,null,null,"{""link"":"""",""source"":""""}","{""id"":"""",""name"":"""",""link"":""""}","{""borough"":"""",""street"":"""",""city"":"""",""postal_code"":"""",""state"":"""",""country"":""""}",null,null,null,
9sUVaZysMKOu0-kPuIer4QM,,Nhà hàng Lộc Nga,,"Khu8, P. Bắc Sơn, Hà Trung, Thanh Hóa, Vietnam",{},null,,+84944269487,7PG74VG3+VG,272,4.000000,null,20.127187,105.853835,,,,,,Asia/Saigon,,0x31366375594acbad:0xb627e964ac8dba83,null,null,null,"{""link"":"""",""source"":""""}","{""id"":"""",""name"":"""",""link"":""""}","{""borough"":"""",""street"":"""",""city"":"""",""postal_code"":"""",""state"":"""",""country"":""""}",null,null,null,
9sUVaZysMKOu0-kPuIer4QM,,Nhà hàng Quang Huyền,,"101 Khu8, P. Bắc Sơn, Hà Trung, Thanh Hóa, Vietnam",{},null,,,7PG74VH3+2M,2,4.500000,null,20.127590,105.854132,,,,,,Asia/Saigon,,0x3136633d277e2bab:0x3fbfa0b67ad70517,null,null,null,"{""link"":"""",""source"":""""}","{""id"":"""",""name"":"""",""link"":""""}","{""borough"":"""",""street"":"""",""city"":"""",""postal_code"":"""",""state"":"""",""country"":""""}",null,null,null,
98UVaazdGdbi2roP-rjt6Qs,,Nhà Hàng Tố Hoa,,"P. Bắc Sơn, Bỉm Sơn, Thanh Hóa, Vietnam",{},null,,+84943228169,7PG74R9X+RV,84,3.800000,null,20.119530,105.849668,,,,,,Asia/Saigon,,0x313663a24b556287:0xfb6998df826aa70a,null,null,null,"{""link"":"""",""source"":""""}","{""id"":"""",""name"":"""",""link"":""""}","{""borough"":"""",""street"":"""",""city"":"""",""postal_code"":"""",""state"":"""",""country"":""""}",null,null,null,
98UVaazdGdbi2roP-rjt6Qs,,Nhà Hàng Tuấn Hòa,,"4V92+92Q, P. Bắc Sơn, Bỉm Sơn, Thanh Hóa, Vietnam",{},null,,+84978576998,7PG74V92+92,136,3.900000,null,20.118458,105.850124,,,,,,Asia/Saigon,,0x313663a256250763:0x78725426d90f2fe4,null,null,null,"{""link"":"""",""source"":""""}","{""id"":"""",""name"":"""",""link"":""""}","{""borough"":"""",""street"":"""",""city"":"""",""postal_code"":"""",""state"":"""",""country"":""""}",null,null,null,
98UVaazdGdbi2roP-rjt6Qs,,Trạm dừng chân Nam Sơn,,"52 Bà Triệu, khu phố 6, Bỉm Sơn, Thanh Hóa, Vietnam",{},null,,+84919254657,7PG74R8X+GX,445,3.200000,null,20.116263,105.849958,,,,,,Asia/Saigon,,0x31366357d0cc9fd9:0x2e12b05d4cd7d950,null,null,null,"{""link"":"""",""source"":""""}","{""id"":"""",""name"":"""",""link"":""""}","{""borough"":"""",""street"":"""",""city"":"""",""postal_code"":"""",""state"":"""",""country"":""""}",null,null,null,
98UVaazdGdbi2roP-rjt6Qs,,"Bai Dinh Viet's Choice Restaurant - Fried rice, noodles, Pan Bread",,"Xóm 4, Gia Viễn, Ninh Bình 08000, Vietnam",{},null,https://sites.google.com/view/baidinhvietschoicerestaurant/trang-ch%E1%BB%A7,+84979618698,7PG77VM6+JP,365,4.900000,null,20.284007,105.861847,,,,,,Asia/Saigon,,0x31367fb727d6bf4b:0x814abc519f09f982,null,null,null,"{""link"":"""",""source"":""""}","{""id"":"""",""name"":"""",""link"":""""}","{""borough"":"""",""street"":"""",""city"":"""",""postal_code"":"""",""state"":"""",""country"":""""}",null,null,null,
98UVaazdGdbi2roP-rjt6Qs,,Tantan Noodles Kitchen,,"C002, The Manor - Hà Nội, Nam Từ Liêm, Hà Nội, Vietnam",{},null,https://www.facebook.com/tantannoodlesvn,+84866496247,7PH72Q7G+P4,404,4.800000,null,21.014364,105.775332,,,,,,Asia/Saigon,,0x313453b58f66f41b:0x816d86bb87fac947,null,null,null,"{""link"":"""",""source"":""""}","{""id"":"""",""name"":"""",""link"":""""}","{""borough"":"""",""street"":"""",""city"":"""",""postal_code"":"""",""state"":"""",""country"":""""}",null,null,null,
98UVaazdGdbi2roP-rjt6Qs,,Wok to box,,"31 P. Khâm Thiên, Khâm Thiên, Đống Đa, Hà Nội, Vietnam",{},null,https://www.instagram.com/woktobox.official/,+84933803333,7PH72R9Q+GH,417,4.800000,null,21.018867,105.838965,,,,,,Asia/Saigon,,0x3135ab51b535a479:0x46b41167035bf366,null,null,null,"{""link"":"""",""source"":""""}","{""id"":"""",""name"":"""",""link"":""""}","{""borough"":"""",""street"":"""",""city"":"""",""postal_code"":"""",""state"":"""",""country"":""""}",null,null,null,
98UVaazdGdbi2roP-rjt6Qs,,Tiệm Quán - Mỳ Hoành Thánh Quảng Đông,,"49b P. Trần Quốc Toản, Trần Hưng Đạo, Hoàn Kiếm, Hà Nội 100000, Vietnam",{},null,,+84946804388,7PH72R9X+W8,73,4.800000,null,21.019858,105.848299,,,,,,Asia/Saigon,,0x3135ab002b8a606d:0x6ae53389cadaaf28,null,null,null,"{""link"":"""",""source"":""""}","{""id"":"""",""name"":"""",""link"":""""}","{""borough"":"""",""street"":"""",""city"":"""",""postal_code"":"""",""state"":"""",""country"":""""}",null,null,null,
98UVaazdGdbi2roP-rjt6Qs,,Noodle & Roll,,"39C P. Lý Quốc Sư, Str, Hoàn Kiếm, Hà Nội, Vietnam",{},null,,+84915613223,7PH72RHX+VP,2276,4.500000,null,21.029702,105.849254,,,,,,Asia/Saigon,,0x3135ab959bed1aa3:0x42c9fc530f0f04,null,null,null,"{""link"":"""",""source"":""""}","{""id"":"""",""name"":"""",""link"":""""}","{""borough"":"""",""street"":"""",""city"":"""",""postal_code"":"""",""state"":"""",""country"":""""}",null,null,null,
98UVaazdGdbi2roP-rjt6Qs,,Tiệm Mỳ Tiên Sơn - Noodles and Dimsum,,"2 Ng. Huyện, Hàng Trống, Hoàn Kiếm, Hà Nội 11006, Vietnam",{},null,,+84943422226,7PH72RHX+WG,901,4.800000,null,21.029771,105.848868,,,,,,Asia/Saigon,,0x3135ab9896cb9915:0x2b571e94ec72c6d5,null,null,null,"{""link"":"""",""source"":""""}","{""id"":"""",""name"":"""",""link"":""""}","{""borough"":"""",""street"":"""",""city"":"""",""postal_code"":"""",""state"":"""",""country"":""""}",null,null,null,
98UVaazdGdbi2roP-rjt6Qs,,Soup Beef Chicken Noodles,,"39b P. Lý Quốc Sư, Hàng Trống, Hoàn Kiếm, Hà Nội, Vietnam",{},null,,,7PH72RHX+WM,12,4.800000,null,21.029780,105.849246,,,,,,Asia/Saigon,,0x3135aba76030b5a1:0x1965f1dc1cc4952b,null,null,null,"{""link"":"""",""source"":""""}","{""id"":"""",""name"":"""",""link"":""""}","{""borough"":"""",""street"":"""",""city"":"""",""postal_code"":"""",""state"":"""",""country"":""""}",null,null,null,
98UVaazdGdbi2roP-rjt6Qs,,Family pho,,"39B P. Lý Quốc Sư, Hàng Trống, Hoàn Kiếm, Hà Nội 100000, Vietnam",{},null,,,7PH72RHX+WM,223,4.800000,null,21.029780,105.849246,,,,,,Asia/Saigon,,0x3135ab1e7c04c2b5:0x3ec872052167de3d,null,null,null,"{""link"":"""",""source"":""""}","{""id"":"""",""name"":"""",""link"":""""}","{""borough"":"""",""street"":"""",""city"":"""",""postal_code"":"""",""state"":"""",""country"":""""}",null,null,null,
98UVaazdGdbi2roP-rjt6Qs,,yumMI - The Boutique Noodle House,,"25 P. Hàng Cháo, Cát Linh, Đống Đa, Hà Nội, Vietnam",{},null,,+84886602401,7PH72RJM+6Q,1033,4.900000,null,21.030510,105.834414,,,,,,Asia/Saigon,,0x3135ab235968009b:0xf917dc8ff4aff07e,null,null,null,"{""link"":"""",""source"":""""}","{""id"":"""",""name"":"""",""link"":""""}","{""borough"":"""",""street"":"""",""city"":"""",""postal_code"":"""",""state"":"""",""country"":""""}",null,null,null,
98UVaazdGdbi2roP-rjt6Qs,,Chilicious - Thai Boat Noodle Vincom Metropolis,,"Vincom Center Metropolis, 29 P. Liễu Giai, Ngọc Khánh, Ba Đình, Hà Nội 100000, Vietnam",{},null,,+842432363636,7PH72RJ8+F2,526,4.800000,null,21.031220,105.815065,,,,,,Asia/Saigon,,0x3135ab006f2e2af7:0x6ee06e5f2434b9d7,null,null,null,"{""link"":"""",""source"":""""}","{""id"":"""",""name"":"""",""link"":""""}","{""borough"":"""",""street"":"""",""city"":"""",""postal_code"":"""",""state"":"""",""country"":""""}",null,null,null,
98UVaazdGdbi2roP-rjt6Qs,,Mỳ vằn thắn Mỳ Khô Cầu Gỗ,,"43 P. Cầu Gỗ, Hàng Bạc, Hoàn Kiếm, Hà Nội, Vietnam",{},null,,+84961135840,7PH72VJ3+R3,68,4.800000,null,21.032076,105.852722,,,,,,Asia/Saigon,,0x3135ab37b6ca9c53:0x2e6cfa1a1b4be74e,null,null,null,"{""link"":"""",""source"":""""}","{""id"":"""",""name"":"""",""link"":""""}","{""borough"":"""",""street"":"""",""city"":"""",""postal_code"":"""",""state"":"""",""country"":""""}",null,null,null,
98UVaazdGdbi2roP-rjt6Qs,,ButoButoNoodles,,"Capital Place, B1 Tower I, 29 P. Liễu Giai, Ngọc Khánh, Ba Đình, Hà Nội 100000, Vietnam",{},null,,+84886094177,7PH72RJ7+MH,56,4.900000,null,21.031740,105.813964,,,,,,Asia/Saigon,,0x3135ab005bda60f9:0xe2b686cd7d6db34,null,null,null,"{""link"":"""",""source"":""""}","{""id"":"""",""name"":"""",""link"":""""}","{""borough"":"""",""street"":"""",""city"":"""",""postal_code"":"""",""state"":"""",""country"":""""}",null,null,null,
98UVaazdGdbi2roP-rjt6Qs,,Sachiko - Japanese & Vietnamese Cuisine,,"54 P. Lương Văn Can, Phố cổ Hà Nội, Hoàn Kiếm, Hà Nội 100000, Vietnam",{},null,http://sachiko.vn/,+84339236923,7PH72VJ2+X6,1382,4.700000,null,21.032452,105.850554,,,,,,Asia/Saigon,,0x3135ab95db092549:0x2590312fbaa40b45,null,null,null,"{""link"":"""",""source"":""""}","{""id"":"""",""name"":"""",""link"":""""}","{""borough"":"""",""street"":"""",""city"":"""",""postal_code"":"""",""state"":"""",""country"":""""}",null,null,null,
98UVaazdGdbi2roP-rjt6Qs,,Wonton Noodles,,"9A P. Đinh Liệt, Hàng Đào, Hoàn Kiếm, Hà Nội, Vietnam",{},null,,,7PH72VJ2+XQ,165,4.500000,null,21.032479,105.851941,,,,,,Asia/Saigon,,0x3135abbf8e32c655:0xae5e3f658bab8047,null,null,null,"{""link"":"""",""source"":""""}","{""id"":"""",""name"":"""",""link"":""""}","{""borough"":"""",""street"":"""",""city"":"""",""postal_code"":"""",""state"":"""",""country"":""""}",null,null,null,
98UVaazdGdbi2roP-rjt6Qs,,MẸT Vietnamese Restaurant & Vegetarian Met 2,,"42 P. Lương Văn Can, Hàng Gai, Hoàn Kiếm, Hà Nội 11015, Vietnam",{},null,https://www.facebook.com/metvietnameserestaurant2?mibextid=LQQJ4d,+84392257292,7PH72VM2+44,21384,4.900000,null,21.032778,105.850361,,,,,,Asia/Saigon,,0x3135ab2c7beb29ad:0xa0c930717b21b67a,null,null,null,"{""link"":"""",""source"":""""}","{""id"":"""",""name"":"""",""link"":""""}","{""borough"":"""",""street"":"""",""city"":"""",""postal_code"":"""",""state"":"""",""country"":""""}",null,null,null,
98UVaazdGdbi2roP-rjt6Qs,,Hanoi Corner Restaurant,,"45 P. Hàng Bạc, Hàng Bạc, Hoàn Kiếm, Hà Nội 11011, Vietnam",{},null,https://business.google.com/v/hanoi-corner-restaurant/017088824524028992656/a2a3/_?caid=20726055293&agid=157371530777&gclid=CjwKCAiAxKy5BhBbEiwAYiW--xq-cgYnFxtpX0ywp2uYmEQmzYQ9jbQbvD-8R4hE8VJwWnjd0CF0fhoCzbAQAvD_BwE,+84862370386,7PH72VM3+G6,6925,4.900000,null,21.033774,105.853007,,,,,,Asia/Saigon,,0x3135bdd1fd341f95:0x34c17afcdfe4b1a2,null,null,null,"{""link"":"""",""source"":""""}","{""id"":"""",""name"":"""",""link"":""""}","{""borough"":"""",""street"":"""",""city"":"""",""postal_code"":"""",""state"":"""",""country"":""""}",null,null,null,
98UVaazdGdbi2roP-rjt6Qs,,Noodle Restaurant 1102,,"30 P. Hồng Phúc, Trúc Bạch, Ba Đình, Hà Nội, Vietnam",{},null,,+842439273440,7PH72RRX+98,54,4.700000,null,21.040926,105.848321,,,,,,Asia/Saigon,,0x3135ab0035810bdb:0x7814f6f95103436f,null,null,null,"{""link"":"""",""source"":""""}","{""id"":"""",""name"":"""",""link"":""""}","{""borough"":"""",""street"":"""",""city"":"""",""postal_code"":"""",""state"":"""",""country"":""""}",null,null,null,
-MUVaZXEBeri2roPwsCpQQ,,Quán nước Hưng Hà,,"km286+397, QL 1A Trạm thu phí Bỉm Sơn, QL1A, Khu phố 8, Hà Trung, Thanh Hóa 40750, Vietnam",{},null,,,7PG74VF2+RP,4,5.000000,null,20.124611,105.851855,,,,,,Asia/Saigon,,0x3136630154162437:0x683d8757b11deb39,null,null,null,"{""link"":"""",""source"":""""}","{""id"":"""",""name"":"""",""link"":""""}","{""borough"":"""",""street"":"""",""city"":"""",""postal_code"":"""",""state"":"""",""country"":""""}",null,null,null,
-MUVaZXEBeri2roPwsCpQQ,,Shop Linh Trang,,"4R8Q+JFQ, Hà Long, Hà Trung, Thanh Hóa, Vietnam",{},null,,,7PG74R8Q+JF,1,5.000000,null,20.116597,105.838738,,,,,,Asia/Saigon,,0x313663d72d863a3f:0xa8e17f4da4cfb0cf,null,null,null,"{""link"":"""",""source"":""""}","{""id"":"""",""name"":"""",""link"":""""}","{""borough"":"""",""street"":"""",""city"":"""",""postal_code"":"""",""state"":"""",""country"":""""}",null,null,null,
-MUVaZXEBeri2roPwsCpQQ,,Ngà Sen Company,,"251 Bà Triệu, P. Bắc Sơn, Bỉm Sơn, Thanh Hóa, Vietnam",{},null,,+842373770333,7PG73VQ4+9G,28,3.600000,null,20.088391,105.856350,,,,,,Asia/Saigon,,0x313663e6f0f074fd:0x1c278c576e55cdae,null,null,null,"{""link"":"""",""source"":""""}","{""id"":"""",""name"":"""",""link"":""""}","{""borough"":"""",""street"":"""",""city"":"""",""postal_code"":"""",""state"":"""",""country"":""""}",null,null,null,
-MUVaZXEBeri2roPwsCpQQ,,Trè sạch bà răm,,"5W2G+Q9M, Trung Sơn, Tam Điệp, Ninh Bình, Vietnam",{},null,,+84946450103,7PG75W2G+Q9,0,0.000000,null,20.151956,105.925927,,,,,,Asia/Saigon,,0x3136650075b78e15:0x847932c6463e2350,null,null,null,"{""link"":"""",""source"":""""}","{""id"":"""",""name"":"""",""link"":""""}","{""borough"":"""",""street"":"""",""city"":"""",""postal_code"":"""",""state"":"""",""country"":""""}",null,null,null,
-MUVaZXEBeri2roPwsCpQQ,,Mintr,,"Hanoi City, 387 Trương Định, tổ 41, Hoàng Mai, Hà Nội 10000, Vietnam",{},null,https://mintrofficial.my.canva.site/mintrxphuclong,+84916466185,7PG7XRPW+PP,1,5.000000,null,20.986870,105.846834,,,,,,Asia/Saigon,,0x3135ad99c8c24fe1:0x61ae69b43a0fe57e,null,null,null,"{""link"":"""",""source"":""""}","{""id"":"""",""name"":"""",""link"":""""}","{""borough"":"""",""street"":"""",""city"":"""",""postal_code"":"""",""state"":"""",""country"":""""}",null,null,null,
-MUVaZXEBeri2roPwsCpQQ,,Ume Food & Drink,,"185 Minh Khai Ward Hà Nội, Hanoi City, 000084, Vietnam",{},null,,+84333186827,7PH72V85+2H,0,0.000000,null,21.015020,105.858882,,,,,,Asia/Saigon,,0x3135ab6cade9fb2d:0xd20741572377293f,null,null,null,"{""link"":"""",""source"":""""}","{""id"":"""",""name"":"""",""link"":""""}","{""borough"":"""",""street"":"""",""city"":"""",""postal_code"":"""",""state"":"""",""country"":""""}",null,null,null,
-MUVaZXEBeri2roPwsCpQQ,,Cổng D - AEON Long Biên,,"2VFQ+4CW, Long Biên, Hà Nội, Vietnam",{},null,,,7PH72VFQ+4C,0,0.000000,null,21.022857,105.888580,,,,,,Asia/Saigon,,0x3135a90024229321:0x3713b264cb5e20ad,null,null,null,"{""link"":"""",""source"":""""}","{""id"":"""",""name"":"""",""link"":""""}","{""borough"":"""",""street"":"""",""city"":"""",""postal_code"":"""",""state"":"""",""country"":""""}",null,null,null,
-MUVaZXEBeri2roPwsCpQQ,,Vsport,,"9 ngách 56/63, Thạch Cầu, Long Biên, Hà Nội, Vietnam",{},null,https://vsport.mobi/,,7PH72VFH+FG,59,4.200000,null,21.023665,105.878780,,,,,,Asia/Saigon,,0x3135add0358252b3:0xa787cb130d2da147,null,null,null,"{""link"":"""",""source"":""""}","{""id"":"""",""name"":"""",""link"":""""}","{""borough"":"""",""street"":"""",""city"":"""",""postal_code"":"""",""state"":"""",""country"":""""}",null,null,null,
-MUVaZXEBeri2roPwsCpQQ,,LaNha Coffee House,,"68d Ng. 353 Đ. Bát Khối, Long Biên, Hà Nội, Vietnam",{},null,https://www.facebook.com/profile.php?id=61554185722531&mibextid=LQQJ4d,,7PH72VFX+F3,54,5.000000,null,21.023725,105.897699,,,,,,Asia/Saigon,,0x3135a9006d8d25b5:0xd080c0adde12be97,null,null,null,"{""link"":"""",""source"":""""}","{""id"":"""",""name"":"""",""link"":""""}","{""borough"":"""",""street"":"""",""city"":"""",""postal_code"":"""",""state"":"""",""country"":""""}",null,null,null,
-MUVaZXEBeri2roPwsCpQQ,,Don Material,,"Ng. 211 Đ. Bát Khối/56A Đ. Bát Khối, Long Biên, Hà Nội 11800, Vietnam",{},null,https://trumnguyenlieu.vn/,+84906043689,7PH72VFR+V4,35,4.400000,null,21.024629,105.890327,,,,,,Asia/Saigon,,0x3135ab782b70ca5d:0xbd8c1a22014d960f,null,null,null,"{""link"":"""",""source"":""""}","{""id"":"""",""name"":"""",""link"":""""}","{""borough"":"""",""street"":"""",""city"":"""",""postal_code"":"""",""state"":"""",""country"":""""}",null,null,null,
-MUVaZXEBeri2roPwsCpQQ,,Collins coffee & tea,,"92 Ng. 26 P. Tư Đình, Long Biên, Hà Nội 100000, Vietnam",{},null,https://www.facebook.com/collins.coffeentea,+84913961606,7PH72VGP+64,9,4.900000,null,21.025571,105.885260,,,,,,Asia/Saigon,,0x3135a9002ef1cdb1:0x9881bd33857d3d6,null,null,null,"{""link"":"""",""source"":""""}","{""id"":"""",""name"":"""",""link"":""""}","{""borough"":"""",""street"":"""",""city"":"""",""postal_code"":"""",""state"":"""",""country"":""""}",null,null,null,
-MUVaZXEBeri2roPwsCpQQ,,Coffee 68 (hà),,"79 P. Tram, Long Biên, Hà Nội, Vietnam",{},null,,,7PH72VGV+J3,12,4.600000,null,21.026501,105.892627,,,,,,Asia/Saigon,,0x3135a91a4d7e1bd1:0xf021c7059169f24e,null,null,null,"{""link"":"""",""source"":""""}","{""id"":"""",""name"":"""",""link"":""""}","{""borough"":"""",""street"":"""",""city"":"""",""postal_code"":"""",""state"":"""",""country"":""""}",null,null,null,
-MUVaZXEBeri2roPwsCpQQ,,Kang Coffee,,"12 Ng. 144 Đ. Cổ Linh, Làng Trạm, Long Biên, Hà Nội, Vietnam",{},null,,+84333666090,7PH72VGV+P7,9,4.800000,null,21.026815,105.893218,,,,,,Asia/Saigon,,0x3135a9000856a609:0xd6928ad6c8e390b0,null,null,null,"{""link"":"""",""source"":""""}","{""id"":"""",""name"":"""",""link"":""""}","{""borough"":"""",""street"":"""",""city"":"""",""postal_code"":"""",""state"":"""",""country"":""""}",null,null,null,
-MUVaZXEBeri2roPwsCpQQ,,Starbucks Aeon Mall Long Bien,,"TTTM Aeonmall Long Biên, Số 27 Đ. Cổ Linh, Long Biên, Hà Nội 100000, Vietnam",{},null,,+842432012791,7PH72VGX+PW,264,4.300000,null,21.026821,105.899852,,,,,,Asia/Saigon,,0x3135a99a7f50b35b:0x71ddf0a255f844af,null,null,null,"{""link"":"""",""source"":""""}","{""id"":"""",""name"":"""",""link"":""""}","{""borough"":"""",""street"":"""",""city"":"""",""postal_code"":"""",""state"":"""",""country"":""""}",null,null,null,
-MUVaZXEBeri2roPwsCpQQ,,"Monaco Coffee - Cổ Linh, Long Biên",,"25 Ng. 64 Đ. Cổ Linh, Long Biên, Hà Nội, Vietnam",{},null,https://monacocoffee.vn/,+84344374851,7PH72VHR+2P,13,3.800000,null,21.027536,105.891795,,,,,,Asia/Saigon,,0x3135a904b3483265:0x5e17c63902b939b5,null,null,null,"{""link"":"""",""source"":""""}","{""id"":"""",""name"":"""",""link"":""""}","{""borough"":"""",""street"":"""",""city"":"""",""postal_code"":"""",""state"":"""",""country"":""""}",null,null,null,
-MUVaZXEBeri2roPwsCpQQ,,1984 Pub,,"37 Ma May, Hoan Kiem Ha Noi, Hanoi City, 10000, Vietnam",{},null,,+84912960466,7PH72VP3+69,274,5.000000,null,21.035602,105.853430,,,,,,Asia/Saigon,,0x3135ab0cca355f9f:0x927a6e8145a34c17,null,null,null,"{""link"":"""",""source"":""""}","{""id"":"""",""name"":"""",""link"":""""}","{""borough"":"""",""street"":"""",""city"":"""",""postal_code"":"""",""state"":"""",""country"":""""}",null,null,null,
-MUVaZXEBeri2roPwsCpQQ,,NẮNG coffee & car wash,,"185A Đ. Lâm Du, Bồ Đề, Long Biên, Hà Nội 000084, Vietnam",{},null,,+84982170405,7PH72VPF+65,32,4.900000,null,21.035570,105.872965,,,,,,Asia/Saigon,,0x3135aba30b92e267:0x45981ed6ed887789,null,null,null,"{""link"":"""",""source"":""""}","{""id"":"""",""name"":"""",""link"":""""}","{""borough"":"""",""street"":"""",""city"":"""",""postal_code"":"""",""state"":"""",""country"":""""}",null,null,null,
-MUVaZXEBeri2roPwsCpQQ,,Trà đá Quang Điệp,,"24 Nguyễn Lam, Phúc Đồng, Long Biên, Hà Nội, Vietnam",{},null,,,7PH72WR3+P5,1,5.000000,null,21.041873,105.902941,,,,,,Asia/Saigon,,0x3135a90015893183:0x1ff9180e7043bc7a,null,null,null,"{""link"":"""",""source"":""""}","{""id"":"""",""name"":"""",""link"":""""}","{""borough"":"""",""street"":"""",""city"":"""",""postal_code"":"""",""state"":"""",""country"":""""}",null,null,null,
-MUVaZXEBeri2roPwsCpQQ,,Máy bán nước tự động 24/7,,"3/564/25 Đ. Nguyễn Văn Cừ, Street, Long Biên, Hà Nội, Vietnam",{},null,,,7PH72VWG+74,0,0.000000,null,21.045715,105.875273,,,,,,Asia/Saigon,,0x3135a90006e44487:0x3a196aa14eacc4f6,null,null,null,"{""link"":"""",""source"":""""}","{""id"":"""",""name"":"""",""link"":""""}","{""borough"":"""",""street"":"""",""city"":"""",""postal_code"":"""",""state"":"""",""country"":""""}",null,null,null,
-MUVaZXEBeri2roPwsCpQQ,,LaBoong D3-24 Nguyễn Minh Châu Phúc Lợi - Trà Ô Long Làng LaBoong,,"ngõ 39 P. Nguyễn Minh Châu, Phúc Lợi, Long Biên, Hà Nội 100000, Vietnam",{},null,,+84383086771,7PH72WW2+CM,118,5.000000,null,21.046078,105.901675,,,,,,Asia/Saigon,,0x3135a9419d294d2b:0xbd979c87235bfd02,null,null,null,"{""link"":"""",""source"":""""}","{""id"":"""",""name"":"""",""link"":""""}","{""borough"":"""",""street"":"""",""city"":"""",""postal_code"":"""",""state"":"""",""country"":""""}",null,null,null,
